{
"type": "FeatureCollection",
"crs": { "type": "name", "properties": { "name": "urn:ogc:def:crs:OGC:1.3:CRS84" } },
"features": [
{ "type": "Feature", "properties": { "ArabicName": "بدر الجنوب", "EnglishName": "BADR AL JANUB", "Longitude": 43.733500, "Latitude": 17.884960, "Emirates_ID": "نجران" }, "geometry": { "type": "Point", "coordinates": [ 43.733500047000177, 17.884959941000204 ] } },
{ "type": "Feature", "properties": { "ArabicName": "ثار", "EnglishName": "THAR", "Longitude": 44.076330, "Latitude": 17.977390, "Emirates_ID": "نجران" }, "geometry": { "type": "Point", "coordinates": [ 44.076330035000296, 17.977389975000165 ] } },
{ "type": "Feature", "properties": { "ArabicName": "حبونا", "EnglishName": "HUBUNA", "Longitude": 44.012830, "Latitude": 17.840680, "Emirates_ID": "نجران" }, "geometry": { "type": "Point", "coordinates": [ 44.012830043000235, 17.840680006000298 ] } },
{ "type": "Feature", "properties": { "ArabicName": "شرورة", "EnglishName": "SHARURAH", "Longitude": 47.188643, "Latitude": 17.499752, "Emirates_ID": "نجران" }, "geometry": { "type": "Point", "coordinates": [ 47.188643319243965, 17.4997518037232 ] } },
{ "type": "Feature", "properties": { "ArabicName": "نجران", "EnglishName": "NAJRAN", "Longitude": 44.266383, "Latitude": 17.540862, "Emirates_ID": "نجران" }, "geometry": { "type": "Point", "coordinates": [ 44.266383399243921, 17.540861797722926 ] } },
{ "type": "Feature", "properties": { "ArabicName": "يدمة", "EnglishName": "YADAMAH", "Longitude": 44.273333, "Latitude": 18.528212, "Emirates_ID": "نجران" }, "geometry": { "type": "Point", "coordinates": [ 44.273333360243839, 18.52821182372287 ] } },
{ "type": "Feature", "properties": { "ArabicName": "الهدار", "EnglishName": "AL HADDAR", "Longitude": 46.081320, "Latitude": 21.962430, "Emirates_ID": "الرياض" }, "geometry": { "type": "Point", "coordinates": [ 46.081319934000192, 21.962429955000232 ] } },
{ "type": "Feature", "properties": { "ArabicName": "الحريق", "EnglishName": "AL HARIQ", "Longitude": 46.516670, "Latitude": 23.616670, "Emirates_ID": "الرياض" }, "geometry": { "type": "Point", "coordinates": [ 46.516670047000162, 23.616670041000248 ] } },
{ "type": "Feature", "properties": { "ArabicName": "الخرج", "EnglishName": "AL KHARJ", "Longitude": 47.326960, "Latitude": 24.158700, "Emirates_ID": "الرياض" }, "geometry": { "type": "Point", "coordinates": [ 47.326959950000173, 24.158699975000161 ] } },
{ "type": "Feature", "properties": { "ArabicName": "الدلم", "EnglishName": "AD DILAM", "Longitude": 47.219410, "Latitude": 23.993830, "Emirates_ID": "الرياض" }, "geometry": { "type": "Point", "coordinates": [ 47.219410003000178, 23.993830005000291 ] } },
{ "type": "Feature", "properties": { "ArabicName": "الدرعية", "EnglishName": "AD DIR'IYAH", "Longitude": 46.580590, "Latitude": 24.741050, "Emirates_ID": "الرياض" }, "geometry": { "type": "Point", "coordinates": [ 46.580589933000169, 24.741049985000188 ] } },
{ "type": "Feature", "properties": { "ArabicName": "الأرطاوي", "EnglishName": "AL ARTAWI", "Longitude": 44.497700, "Latitude": 25.378930, "Emirates_ID": "الرياض" }, "geometry": { "type": "Point", "coordinates": [ 44.497699954000154, 25.378930030000276 ] } },
{ "type": "Feature", "properties": { "ArabicName": "الدوادمي", "EnglishName": "AD DUWADIMI", "Longitude": 44.381140, "Latitude": 24.501280, "Emirates_ID": "الرياض" }, "geometry": { "type": "Point", "coordinates": [ 44.381139939000207, 24.501279950000139 ] } },
{ "type": "Feature", "properties": { "ArabicName": "الجمش", "EnglishName": "AL JIMSH", "Longitude": 43.687140, "Latitude": 24.675650, "Emirates_ID": "الرياض" }, "geometry": { "type": "Point", "coordinates": [ 43.687140034000095, 24.675649969000233 ] } },
{ "type": "Feature", "properties": { "ArabicName": "عرجاء", "EnglishName": "ARJA'", "Longitude": 44.295850, "Latitude": 24.722810, "Emirates_ID": "الرياض" }, "geometry": { "type": "Point", "coordinates": [ 44.295850016000145, 24.722810020000281 ] } },
{ "type": "Feature", "properties": { "ArabicName": "ساجر", "EnglishName": "SAJIR", "Longitude": 44.601280, "Latitude": 25.186720, "Emirates_ID": "الرياض" }, "geometry": { "type": "Point", "coordinates": [ 44.601279974000192, 25.186719990000142 ] } },
{ "type": "Feature", "properties": { "ArabicName": "نفي", "EnglishName": "NIFI", "Longitude": 43.812510, "Latitude": 25.034560, "Emirates_ID": "الرياض" }, "geometry": { "type": "Point", "coordinates": [ 43.812510036000219, 25.034560050000096 ] } },
{ "type": "Feature", "properties": { "ArabicName": "خف", "EnglishName": "KHUFF", "Longitude": 44.710252, "Latitude": 24.926892, "Emirates_ID": "الرياض" }, "geometry": { "type": "Point", "coordinates": [ 44.710252204587789, 24.926892032565092 ] } },
{ "type": "Feature", "properties": { "ArabicName": "عسيلة", "EnglishName": "'USAYLAH", "Longitude": 44.682270, "Latitude": 25.110660, "Emirates_ID": "الرياض" }, "geometry": { "type": "Point", "coordinates": [ 44.682270055000288, 25.110659992000137 ] } },
{ "type": "Feature", "properties": { "ArabicName": "الرياض", "EnglishName": "RIYADH", "Longitude": 46.733330, "Latitude": 24.700000, "Emirates_ID": "الرياض" }, "geometry": { "type": "Point", "coordinates": [ 46.73333003200014, 24.699999961000231 ] } },
{ "type": "Feature", "properties": { "ArabicName": "الزلفي", "EnglishName": "AZ ZULFI", "Longitude": 44.805770, "Latitude": 26.297110, "Emirates_ID": "الرياض" }, "geometry": { "type": "Point", "coordinates": [ 44.80577002400014, 26.297110015000214 ] } },
{ "type": "Feature", "properties": { "ArabicName": "السليل", "EnglishName": "AS SULAYYIL", "Longitude": 45.575610, "Latitude": 20.473450, "Emirates_ID": "الرياض" }, "geometry": { "type": "Point", "coordinates": [ 45.575610023000309, 20.47345005700015 ] } },
{ "type": "Feature", "properties": { "ArabicName": "الغاط", "EnglishName": "AL GHAT", "Longitude": 44.950360, "Latitude": 26.040750, "Emirates_ID": "الرياض" }, "geometry": { "type": "Point", "coordinates": [ 44.950360029000251, 26.040749969000217 ] } },
{ "type": "Feature", "properties": { "ArabicName": "الحلوة", "EnglishName": "AL HILWAH", "Longitude": 45.393654, "Latitude": 23.655483, "Emirates_ID": "الرياض" }, "geometry": { "type": "Point", "coordinates": [ 45.393654109745341, 23.655482555263063 ] } },
{ "type": "Feature", "properties": { "ArabicName": "القويعية", "EnglishName": "AL QUWAY'IYAH", "Longitude": 45.265720, "Latitude": 24.050680, "Emirates_ID": "الرياض" }, "geometry": { "type": "Point", "coordinates": [ 45.265719982000235, 24.050679943000091 ] } },
{ "type": "Feature", "properties": { "ArabicName": "سنام", "EnglishName": "SANAM", "Longitude": 44.776990, "Latitude": 23.675720, "Emirates_ID": "الرياض" }, "geometry": { "type": "Point", "coordinates": [ 44.776990062000266, 23.675719952000293 ] } },
{ "type": "Feature", "properties": { "ArabicName": "الرين", "EnglishName": "AR RAYN", "Longitude": 45.499680, "Latitude": 23.545080, "Emirates_ID": "الرياض" }, "geometry": { "type": "Point", "coordinates": [ 45.499680060000173, 23.545080046000237 ] } },
{ "type": "Feature", "properties": { "ArabicName": "المجمعة", "EnglishName": "AL MAJMA'AH", "Longitude": 45.339020, "Latitude": 25.907430, "Emirates_ID": "الرياض" }, "geometry": { "type": "Point", "coordinates": [ 45.339019940000298, 25.907429964000187 ] } },
{ "type": "Feature", "properties": { "ArabicName": "جلاجل", "EnglishName": "JALAJIL", "Longitude": 45.455670, "Latitude": 25.681600, "Emirates_ID": "الرياض" }, "geometry": { "type": "Point", "coordinates": [ 45.455670024000142, 25.681600038000227 ] } },
{ "type": "Feature", "properties": { "ArabicName": "حوطة سدير", "EnglishName": "HAWTAT SUDAIR", "Longitude": 45.619630, "Latitude": 25.596920, "Emirates_ID": "الرياض" }, "geometry": { "type": "Point", "coordinates": [ 45.619630025000276, 25.596919976000265 ] } },
{ "type": "Feature", "properties": { "ArabicName": "تمير", "EnglishName": "TUMAIR", "Longitude": 45.869270, "Latitude": 25.709140, "Emirates_ID": "الرياض" }, "geometry": { "type": "Point", "coordinates": [ 45.869269941000084, 25.709139960000186 ] } },
{ "type": "Feature", "properties": { "ArabicName": "الارطاوية", "EnglishName": "AL ARTAWIYAH", "Longitude": 45.349780, "Latitude": 26.514670, "Emirates_ID": "الرياض" }, "geometry": { "type": "Point", "coordinates": [ 45.349780065000175, 26.514669988000264 ] } },
{ "type": "Feature", "properties": { "ArabicName": "المزاحمية", "EnglishName": "AL MUZAHIMIYAH", "Longitude": 46.276600, "Latitude": 24.462030, "Emirates_ID": "الرياض" }, "geometry": { "type": "Point", "coordinates": [ 46.276600029000292, 24.462030040000286 ] } },
{ "type": "Feature", "properties": { "ArabicName": "ثادق", "EnglishName": "THADIQ", "Longitude": 45.861790, "Latitude": 25.297150, "Emirates_ID": "الرياض" }, "geometry": { "type": "Point", "coordinates": [ 45.861789982000175, 25.297149945000172 ] } },
{ "type": "Feature", "properties": { "ArabicName": "حريملاء", "EnglishName": "HURAYMILA", "Longitude": 46.128350, "Latitude": 25.132260, "Emirates_ID": "الرياض" }, "geometry": { "type": "Point", "coordinates": [ 46.128350049000119, 25.132259979000253 ] } },
{ "type": "Feature", "properties": { "ArabicName": "ملهم", "EnglishName": "MALHAM", "Longitude": 46.326567, "Latitude": 25.170567, "Emirates_ID": "الرياض" }, "geometry": { "type": "Point", "coordinates": [ 46.326566666666849, 25.170566666666787 ] } },
{ "type": "Feature", "properties": { "ArabicName": "حوطة بني تميم", "EnglishName": "HAWTAT BANI TAMIM", "Longitude": 46.864300, "Latitude": 23.497610, "Emirates_ID": "الرياض" }, "geometry": { "type": "Point", "coordinates": [ 46.864299959000277, 23.497610032000239 ] } },
{ "type": "Feature", "properties": { "ArabicName": "رماح", "EnglishName": "RUMAH", "Longitude": 47.161000, "Latitude": 25.576880, "Emirates_ID": "الرياض" }, "geometry": { "type": "Point", "coordinates": [ 47.161000034000153, 25.576879970000164 ] } },
{ "type": "Feature", "properties": { "ArabicName": "شقراء", "EnglishName": "SHAQRA'", "Longitude": 45.255060, "Latitude": 25.241460, "Emirates_ID": "الرياض" }, "geometry": { "type": "Point", "coordinates": [ 45.255060065000293, 25.241460041000266 ] } },
{ "type": "Feature", "properties": { "ArabicName": "ضرما", "EnglishName": "DURUMA", "Longitude": 46.131820, "Latitude": 24.604110, "Emirates_ID": "الرياض" }, "geometry": { "type": "Point", "coordinates": [ 46.131819952000228, 24.604110010000284 ] } },
{ "type": "Feature", "properties": { "ArabicName": "عفيف", "EnglishName": "AFIF", "Longitude": 42.921430, "Latitude": 23.909530, "Emirates_ID": "الرياض" }, "geometry": { "type": "Point", "coordinates": [ 42.921429955000235, 23.909529980000229 ] } },
{ "type": "Feature", "properties": { "ArabicName": "مرات", "EnglishName": "MARAT", "Longitude": 45.464370, "Latitude": 25.073160, "Emirates_ID": "الرياض" }, "geometry": { "type": "Point", "coordinates": [ 45.464370038000197, 25.073160020000159 ] } },
{ "type": "Feature", "properties": { "ArabicName": "النويعمة", "EnglishName": "AN NUWAY'MAH", "Longitude": 44.809220, "Latitude": 20.455850, "Emirates_ID": "الرياض" }, "geometry": { "type": "Point", "coordinates": [ 44.809220014000118, 20.455849978000288 ] } },
{ "type": "Feature", "properties": { "ArabicName": "وادي الدواسر", "EnglishName": "WADI AD DAWASIR", "Longitude": 44.783010, "Latitude": 20.469680, "Emirates_ID": "الرياض" }, "geometry": { "type": "Point", "coordinates": [ 44.783010019000187, 20.469679962000214 ] } },
{ "type": "Feature", "properties": { "ArabicName": "الافلاج", "EnglishName": "AL AFLAJ", "Longitude": 47.163734, "Latitude": 22.306935, "Emirates_ID": "الرياض" }, "geometry": { "type": "Point", "coordinates": [ 47.163734164112725, 22.306934995624772 ] } },
{ "type": "Feature", "properties": { "ArabicName": "البدع", "EnglishName": "AL BAD'", "Longitude": 35.007630, "Latitude": 28.511190, "Emirates_ID": "تبوك" }, "geometry": { "type": "Point", "coordinates": [ 35.007629996000105, 28.511189971000306 ] } },
{ "type": "Feature", "properties": { "ArabicName": "الوجه", "EnglishName": "AL WAJH", "Longitude": 36.473000, "Latitude": 26.240220, "Emirates_ID": "تبوك" }, "geometry": { "type": "Point", "coordinates": [ 36.473000008000156, 26.240219941000305 ] } },
{ "type": "Feature", "properties": { "ArabicName": "املج", "EnglishName": "UMLUJ", "Longitude": 37.259380, "Latitude": 25.038650, "Emirates_ID": "تبوك" }, "geometry": { "type": "Point", "coordinates": [ 37.259379972000204, 25.038650018000283 ] } },
{ "type": "Feature", "properties": { "ArabicName": "تبوك", "EnglishName": "TABUK", "Longitude": 36.533870, "Latitude": 28.414640, "Emirates_ID": "تبوك" }, "geometry": { "type": "Point", "coordinates": [ 36.533870034000245, 28.414639967000141 ] } },
{ "type": "Feature", "properties": { "ArabicName": "بئر بن هرماس", "EnglishName": "BIR IBN HERMAS", "Longitude": 36.269240, "Latitude": 28.854980, "Emirates_ID": "تبوك" }, "geometry": { "type": "Point", "coordinates": [ 36.26924004000017, 28.854979973000297 ] } },
{ "type": "Feature", "properties": { "ArabicName": "تيماء", "EnglishName": "TAYMA'", "Longitude": 38.550600, "Latitude": 27.635020, "Emirates_ID": "تبوك" }, "geometry": { "type": "Point", "coordinates": [ 38.550600018000296, 27.635020004000296 ] } },
{ "type": "Feature", "properties": { "ArabicName": "حقل", "EnglishName": "HAQL", "Longitude": 34.948630, "Latitude": 29.301030, "Emirates_ID": "تبوك" }, "geometry": { "type": "Point", "coordinates": [ 34.948630028000252, 29.30102997500012 ] } },
{ "type": "Feature", "properties": { "ArabicName": "ضبا", "EnglishName": "DUBA", "Longitude": 35.681990, "Latitude": 27.362120, "Emirates_ID": "تبوك" }, "geometry": { "type": "Point", "coordinates": [ 35.681989969000199, 27.362119949000146 ] } },
{ "type": "Feature", "properties": { "ArabicName": "العويقلية", "EnglishName": "AL UWAYQILAH", "Longitude": 42.239770, "Latitude": 30.387830, "Emirates_ID": "الحدود الشمالية" }, "geometry": { "type": "Point", "coordinates": [ 42.239770059000193, 30.387829994000242 ] } },
{ "type": "Feature", "properties": { "ArabicName": "رفحاء", "EnglishName": "RAFHA'", "Longitude": 43.499030, "Latitude": 29.637230, "Emirates_ID": "الحدود الشمالية" }, "geometry": { "type": "Point", "coordinates": [ 43.499030011000173, 29.637230018000139 ] } },
{ "type": "Feature", "properties": { "ArabicName": "الشعبة", "EnglishName": "ASH SHU'ABAH", "Longitude": 44.731940, "Latitude": 28.892770, "Emirates_ID": "الحدود الشمالية" }, "geometry": { "type": "Point", "coordinates": [ 44.73194003600014, 28.892770029000303 ] } },
{ "type": "Feature", "properties": { "ArabicName": "لينة", "EnglishName": "LINAH", "Longitude": 43.747970, "Latitude": 28.765800, "Emirates_ID": "الحدود الشمالية" }, "geometry": { "type": "Point", "coordinates": [ 43.747969939000143, 28.765799972000195 ] } },
{ "type": "Feature", "properties": { "ArabicName": "طريف", "EnglishName": "TURAIF", "Longitude": 38.657500, "Latitude": 31.681940, "Emirates_ID": "الحدود الشمالية" }, "geometry": { "type": "Point", "coordinates": [ 38.657500031000154, 31.681939941000223 ] } },
{ "type": "Feature", "properties": { "ArabicName": "عرعر", "EnglishName": "AR'AR", "Longitude": 41.013330, "Latitude": 30.972150, "Emirates_ID": "الحدود الشمالية" }, "geometry": { "type": "Point", "coordinates": [ 41.013329971000246, 30.972149984000168 ] } },
{ "type": "Feature", "properties": { "ArabicName": "سكاكا", "EnglishName": "SAKAKA", "Longitude": 40.214170, "Latitude": 29.972800, "Emirates_ID": "الجوف" }, "geometry": { "type": "Point", "coordinates": [ 40.214169969000238, 29.972799999000244 ] } },
{ "type": "Feature", "properties": { "ArabicName": "طبرجل", "EnglishName": "TUBARJAL", "Longitude": 38.221840, "Latitude": 30.500980, "Emirates_ID": "الجوف" }, "geometry": { "type": "Point", "coordinates": [ 38.221839970000246, 30.500980047000155 ] } },
{ "type": "Feature", "properties": { "ArabicName": "القريات", "EnglishName": "AL QURAYYAT", "Longitude": 37.339730, "Latitude": 31.351340, "Emirates_ID": "الجوف" }, "geometry": { "type": "Point", "coordinates": [ 37.339729930000203, 31.351339987000244 ] } },
{ "type": "Feature", "properties": { "ArabicName": "دومة الجندل", "EnglishName": "DAWMAT AL JANDAL", "Longitude": 39.865670, "Latitude": 29.817870, "Emirates_ID": "الجوف" }, "geometry": { "type": "Point", "coordinates": [ 39.865669973000081, 29.817869952000081 ] } },
{ "type": "Feature", "properties": { "ArabicName": "العلا", "EnglishName": "AL ULA", "Longitude": 37.909920, "Latitude": 26.634780, "Emirates_ID": "المدينة المنورة" }, "geometry": { "type": "Point", "coordinates": [ 37.909920016000228, 26.634780030000172 ] } },
{ "type": "Feature", "properties": { "ArabicName": "مغيراء", "EnglishName": "MUGHAYRA'", "Longitude": 38.077790, "Latitude": 26.465420, "Emirates_ID": "المدينة المنورة" }, "geometry": { "type": "Point", "coordinates": [ 38.077790053000285, 26.46541997900016 ] } },
{ "type": "Feature", "properties": { "ArabicName": "العيص", "EnglishName": "AL 'IS", "Longitude": 38.116350, "Latitude": 25.059880, "Emirates_ID": "المدينة المنورة" }, "geometry": { "type": "Point", "coordinates": [ 38.11634994100018, 25.059880047000149 ] } },
{ "type": "Feature", "properties": { "ArabicName": "المدينة المنورة", "EnglishName": "AL MADINAH AL MUNAWWARAH", "Longitude": 39.607810, "Latitude": 24.470580, "Emirates_ID": "المدينة المنورة" }, "geometry": { "type": "Point", "coordinates": [ 39.607810061000123, 24.470579962000159 ] } },
{ "type": "Feature", "properties": { "ArabicName": "الصويدرة", "EnglishName": "AS SUWAYDIRAH", "Longitude": 40.156120, "Latitude": 24.728960, "Emirates_ID": "المدينة المنورة" }, "geometry": { "type": "Point", "coordinates": [ 40.156119984000156, 24.728959961000271 ] } },
{ "type": "Feature", "properties": { "ArabicName": "بدر", "EnglishName": "BADR", "Longitude": 38.794950, "Latitude": 23.783010, "Emirates_ID": "المدينة المنورة" }, "geometry": { "type": "Point", "coordinates": [ 38.794950047000214, 23.783010056000194 ] } },
{ "type": "Feature", "properties": { "ArabicName": "خيبر", "EnglishName": "KHAYBAR", "Longitude": 39.278760, "Latitude": 25.718370, "Emirates_ID": "المدينة المنورة" }, "geometry": { "type": "Point", "coordinates": [ 39.278759947000083, 25.71837000000022 ] } },
{ "type": "Feature", "properties": { "ArabicName": "ينبع", "EnglishName": "YANBU", "Longitude": 38.063360, "Latitude": 24.093920, "Emirates_ID": "المدينة المنورة" }, "geometry": { "type": "Point", "coordinates": [ 38.06336004900021, 24.093919971000219 ] } },
{ "type": "Feature", "properties": { "ArabicName": "ينبع الصناعيه", "EnglishName": "YANBAA AS SENAYAH", "Longitude": 38.266333, "Latitude": 24.010645, "Emirates_ID": "المدينة المنورة" }, "geometry": { "type": "Point", "coordinates": [ 38.266333346243869, 24.010645148056199 ] } },
{ "type": "Feature", "properties": { "ArabicName": "الاسياح", "EnglishName": "AL ASYAH", "Longitude": 44.218450, "Latitude": 26.777790, "Emirates_ID": "القصيم" }, "geometry": { "type": "Point", "coordinates": [ 44.218449941000245, 26.777790025000115 ] } },
{ "type": "Feature", "properties": { "ArabicName": "قبة", "EnglishName": "QIBAH", "Longitude": 44.331200, "Latitude": 27.406460, "Emirates_ID": "القصيم" }, "geometry": { "type": "Point", "coordinates": [ 44.331200014000217, 27.40646005300016 ] } },
{ "type": "Feature", "properties": { "ArabicName": "البدائع", "EnglishName": "AL BADAI'", "Longitude": 43.725660, "Latitude": 25.998360, "Emirates_ID": "القصيم" }, "geometry": { "type": "Point", "coordinates": [ 43.725659975000212, 25.998359953000261 ] } },
{ "type": "Feature", "properties": { "ArabicName": "البكيرية", "EnglishName": "AL BUKAYRIYAH", "Longitude": 43.657270, "Latitude": 26.148890, "Emirates_ID": "القصيم" }, "geometry": { "type": "Point", "coordinates": [ 43.657270039000196, 26.148889953000207 ] } },
{ "type": "Feature", "properties": { "ArabicName": "دخنة", "EnglishName": "DUKHNAH", "Longitude": 43.620000, "Latitude": 25.355880, "Emirates_ID": "القصيم" }, "geometry": { "type": "Point", "coordinates": [ 43.620000043000232, 25.355880012000227 ] } },
{ "type": "Feature", "properties": { "ArabicName": "الرس", "EnglishName": "AR RASS", "Longitude": 43.507480, "Latitude": 25.870260, "Emirates_ID": "القصيم" }, "geometry": { "type": "Point", "coordinates": [ 43.507479961000115, 25.870259993000218 ] } },
{ "type": "Feature", "properties": { "ArabicName": "الشماسية", "EnglishName": "ASH SHIMASIYAH", "Longitude": 44.255130, "Latitude": 26.325930, "Emirates_ID": "القصيم" }, "geometry": { "type": "Point", "coordinates": [ 44.255129958000168, 26.325929985000244 ] } },
{ "type": "Feature", "properties": { "ArabicName": "المذنب", "EnglishName": "AL MIDHNAB", "Longitude": 44.222190, "Latitude": 25.860730, "Emirates_ID": "القصيم" }, "geometry": { "type": "Point", "coordinates": [ 44.222190037000246, 25.860729995000213 ] } },
{ "type": "Feature", "properties": { "ArabicName": "أبانات", "EnglishName": "ABANAT", "Longitude": 42.852690, "Latitude": 25.501210, "Emirates_ID": "القصيم" }, "geometry": { "type": "Point", "coordinates": [ 42.852690060000157, 25.501210008000157 ] } },
{ "type": "Feature", "properties": { "ArabicName": "النبهانية", "EnglishName": "AN NABHANIYAH", "Longitude": 43.058370, "Latitude": 25.872080, "Emirates_ID": "القصيم" }, "geometry": { "type": "Point", "coordinates": [ 43.05837001600014, 25.872079989000156 ] } },
{ "type": "Feature", "properties": { "ArabicName": "القرين", "EnglishName": "AL QURAYN", "Longitude": 43.372570, "Latitude": 26.019370, "Emirates_ID": "القصيم" }, "geometry": { "type": "Point", "coordinates": [ 43.372569971000246, 26.019369958000198 ] } },
{ "type": "Feature", "properties": { "ArabicName": "الشبيكية", "EnglishName": "ASH SHUBAYKIYAH", "Longitude": 43.287280, "Latitude": 25.258910, "Emirates_ID": "القصيم" }, "geometry": { "type": "Point", "coordinates": [ 43.28727995800017, 25.25891000300021 ] } },
{ "type": "Feature", "properties": { "ArabicName": "الدليمية", "EnglishName": "AD DILAYMIYAH", "Longitude": 43.285920, "Latitude": 26.036180, "Emirates_ID": "القصيم" }, "geometry": { "type": "Point", "coordinates": [ 43.285919998000281, 26.036179959000265 ] } },
{ "type": "Feature", "properties": { "ArabicName": "الفوارة", "EnglishName": "AL FAWWARAH", "Longitude": 42.658280, "Latitude": 26.067720, "Emirates_ID": "القصيم" }, "geometry": { "type": "Point", "coordinates": [ 42.658280065000099, 26.067720027000234 ] } },
{ "type": "Feature", "properties": { "ArabicName": "الذيبية", "EnglishName": "ADH DHIBIYAH", "Longitude": 43.151384, "Latitude": 26.031241, "Emirates_ID": "القصيم" }, "geometry": { "type": "Point", "coordinates": [ 43.151384121824037, 26.031241358329112 ] } },
{ "type": "Feature", "properties": { "ArabicName": "العمار", "EnglishName": "AL 'AMAR", "Longitude": 44.319170, "Latitude": 25.575510, "Emirates_ID": "القصيم" }, "geometry": { "type": "Point", "coordinates": [ 44.319170007000253, 25.575510056000155 ] } },
{ "type": "Feature", "properties": { "ArabicName": "بريدة", "EnglishName": "BURAYDAH", "Longitude": 43.974360, "Latitude": 26.330340, "Emirates_ID": "القصيم" }, "geometry": { "type": "Point", "coordinates": [ 43.974359974000151, 26.330339990000141 ] } },
{ "type": "Feature", "properties": { "ArabicName": "القوارة", "EnglishName": "AL QUWARAH", "Longitude": 43.473930, "Latitude": 26.780490, "Emirates_ID": "القصيم" }, "geometry": { "type": "Point", "coordinates": [ 43.473929972000178, 26.78048995100022 ] } },
{ "type": "Feature", "properties": { "ArabicName": "رياض الخبراء", "EnglishName": "RIYAD AL KHABRA", "Longitude": 43.539030, "Latitude": 26.038780, "Emirates_ID": "القصيم" }, "geometry": { "type": "Point", "coordinates": [ 43.539030060000186, 26.03877995500028 ] } },
{ "type": "Feature", "properties": { "ArabicName": "ضرية", "EnglishName": "DARIYAH", "Longitude": 42.934230, "Latitude": 24.712920, "Emirates_ID": "القصيم" }, "geometry": { "type": "Point", "coordinates": [ 42.934230030000151, 24.712920040000142 ] } },
{ "type": "Feature", "properties": { "ArabicName": "عقلة الصقور", "EnglishName": "UQLAT AS SUQUR", "Longitude": 42.207970, "Latitude": 25.833500, "Emirates_ID": "القصيم" }, "geometry": { "type": "Point", "coordinates": [ 42.207969970000306, 25.833499961000143 ] } },
{ "type": "Feature", "properties": { "ArabicName": "عنيزة", "EnglishName": "UNAYZAH", "Longitude": 43.987670, "Latitude": 26.091550, "Emirates_ID": "القصيم" }, "geometry": { "type": "Point", "coordinates": [ 43.987670036000281, 26.091550024000298 ] } },
{ "type": "Feature", "properties": { "ArabicName": "عيون الجواء", "EnglishName": "UYUN AL JAWA'", "Longitude": 43.629330, "Latitude": 26.499740, "Emirates_ID": "القصيم" }, "geometry": { "type": "Point", "coordinates": [ 43.629329972000278, 26.499740040000233 ] } },
{ "type": "Feature", "properties": { "ArabicName": "النماص", "EnglishName": "AN NAMAS", "Longitude": 42.496150, "Latitude": 18.604940, "Emirates_ID": "عسير" }, "geometry": { "type": "Point", "coordinates": [ 42.49615002100029, 18.604939999000237 ] } },
{ "type": "Feature", "properties": { "ArabicName": "بللسمر", "EnglishName": "BILLASMAR", "Longitude": 42.272420, "Latitude": 18.773450, "Emirates_ID": "عسير" }, "geometry": { "type": "Point", "coordinates": [ 42.272420015000193, 18.773449955000217 ] } },
{ "type": "Feature", "properties": { "ArabicName": "بللحمر", "EnglishName": "BILLAHMAR", "Longitude": 42.323995, "Latitude": 18.634621, "Emirates_ID": "عسير" }, "geometry": { "type": "Point", "coordinates": [ 42.323994608000248, 18.634620877999964 ] } },
{ "type": "Feature", "properties": { "ArabicName": "القحمة", "EnglishName": "AL QAHMAH", "Longitude": 41.683000, "Latitude": 18.008050, "Emirates_ID": "عسير" }, "geometry": { "type": "Point", "coordinates": [ 41.683000013000196, 18.008050044000242 ] } },
{ "type": "Feature", "properties": { "ArabicName": "لعصان", "EnglishName": "LI'SAN", "Longitude": 42.588480, "Latitude": 18.261650, "Emirates_ID": "عسير" }, "geometry": { "type": "Point", "coordinates": [ 42.588479946000177, 18.261650012000189 ] } },
{ "type": "Feature", "properties": { "ArabicName": "الشرف", "EnglishName": "ASH SHARAF", "Longitude": 42.539860, "Latitude": 18.200140, "Emirates_ID": "عسير" }, "geometry": { "type": "Point", "coordinates": [ 42.53986005500019, 18.200139968999963 ] } },
{ "type": "Feature", "properties": { "ArabicName": "العبب", "EnglishName": "AL 'ABAB", "Longitude": 42.569850, "Latitude": 18.235140, "Emirates_ID": "عسير" }, "geometry": { "type": "Point", "coordinates": [ 42.569850025000164, 18.235140003000254 ] } },
{ "type": "Feature", "properties": { "ArabicName": "حجلا", "EnglishName": "HAJLA", "Longitude": 42.628790, "Latitude": 18.250420, "Emirates_ID": "عسير" }, "geometry": { "type": "Point", "coordinates": [ 42.628790018000188, 18.250420003000102 ] } },
{ "type": "Feature", "properties": { "ArabicName": "ابها", "EnglishName": "ABHA", "Longitude": 42.500000, "Latitude": 18.216670, "Emirates_ID": "عسير" }, "geometry": { "type": "Point", "coordinates": [ 42.50000001900014, 18.216669997000224 ] } },
{ "type": "Feature", "properties": { "ArabicName": "الربوعة", "EnglishName": "AR RABUAH", "Longitude": 43.327760, "Latitude": 17.566660, "Emirates_ID": "عسير" }, "geometry": { "type": "Point", "coordinates": [ 43.327759941000295, 17.566659981000214 ] } },
{ "type": "Feature", "properties": { "ArabicName": "احد رفيده", "EnglishName": "AHAD RIFAYDAH", "Longitude": 42.836630, "Latitude": 18.173580, "Emirates_ID": "عسير" }, "geometry": { "type": "Point", "coordinates": [ 42.83663000200022, 18.173580007000282 ] } },
{ "type": "Feature", "properties": { "ArabicName": "الواديين", "EnglishName": "AL WADIYEEN", "Longitude": 42.824401, "Latitude": 18.102844, "Emirates_ID": "عسير" }, "geometry": { "type": "Point", "coordinates": [ 42.824401110000224, 18.10284383200019 ] } },
{ "type": "Feature", "properties": { "ArabicName": "البرك", "EnglishName": "AL BIRK", "Longitude": 41.541510, "Latitude": 18.224920, "Emirates_ID": "عسير" }, "geometry": { "type": "Point", "coordinates": [ 41.541509986000221, 18.224919959000204 ] } },
{ "type": "Feature", "properties": { "ArabicName": "المجاردة", "EnglishName": "AL MAJARDAH", "Longitude": 41.936300, "Latitude": 19.124390, "Emirates_ID": "عسير" }, "geometry": { "type": "Point", "coordinates": [ 41.936299991000112, 19.124389982000139 ] } },
{ "type": "Feature", "properties": { "ArabicName": "المنظر", "EnglishName": "AL MANDHAR", "Longitude": 42.059210, "Latitude": 18.781790, "Emirates_ID": "عسير" }, "geometry": { "type": "Point", "coordinates": [ 42.059210062000204, 18.781789992000256 ] } },
{ "type": "Feature", "properties": { "ArabicName": "بارق", "EnglishName": "BARIQ", "Longitude": 41.942200, "Latitude": 18.927900, "Emirates_ID": "عسير" }, "geometry": { "type": "Point", "coordinates": [ 41.942200060000232, 18.927899968000247 ] } },
{ "type": "Feature", "properties": { "ArabicName": "البشائر", "EnglishName": "AL BASHAIR", "Longitude": 41.946030, "Latitude": 19.742220, "Emirates_ID": "عسير" }, "geometry": { "type": "Point", "coordinates": [ 41.946029998000256, 19.742219965000288 ] } },
{ "type": "Feature", "properties": { "ArabicName": "بلقرن", "EnglishName": "BALQARN", "Longitude": 41.888640, "Latitude": 19.590380, "Emirates_ID": "عسير" }, "geometry": { "type": "Point", "coordinates": [ 41.888639971000259, 19.59037995500023 ] } },
{ "type": "Feature", "properties": { "ArabicName": "باشوت", "EnglishName": "BASHUT", "Longitude": 41.882850, "Latitude": 19.578600, "Emirates_ID": "عسير" }, "geometry": { "type": "Point", "coordinates": [ 41.882850007000286, 19.578599943000256 ] } },
{ "type": "Feature", "properties": { "ArabicName": "صمخ", "EnglishName": "SAMAKH", "Longitude": 42.805667, "Latitude": 19.372033, "Emirates_ID": "عسير" }, "geometry": { "type": "Point", "coordinates": [ 42.805666666666809, 19.372033333333491 ] } },
{ "type": "Feature", "properties": { "ArabicName": "بيشة", "EnglishName": "BISHAH", "Longitude": 42.606460, "Latitude": 20.007360, "Emirates_ID": "عسير" }, "geometry": { "type": "Point", "coordinates": [ 42.606460035000282, 20.00736004200013 ] } },
{ "type": "Feature", "properties": { "ArabicName": "تثليث", "EnglishName": "TATHLITH", "Longitude": 43.503630, "Latitude": 19.530820, "Emirates_ID": "عسير" }, "geometry": { "type": "Point", "coordinates": [ 43.503629953000086, 19.530819958000109 ] } },
{ "type": "Feature", "properties": { "ArabicName": "الامواه", "EnglishName": "AL AMWAH", "Longitude": 43.659360, "Latitude": 18.715030, "Emirates_ID": "عسير" }, "geometry": { "type": "Point", "coordinates": [ 43.659359941000275, 18.715030038000236 ] } },
{ "type": "Feature", "properties": { "ArabicName": "الشعف", "EnglishName": "ASH SHA'F", "Longitude": 42.191230, "Latitude": 18.935610, "Emirates_ID": "عسير" }, "geometry": { "type": "Point", "coordinates": [ 42.191229958000235, 18.935609945000181 ] } },
{ "type": "Feature", "properties": { "ArabicName": "تنومة", "EnglishName": "TANUMAH", "Longitude": 42.166060, "Latitude": 18.963610, "Emirates_ID": "عسير" }, "geometry": { "type": "Point", "coordinates": [ 42.166059938000274, 18.963609988000144 ] } },
{ "type": "Feature", "properties": { "ArabicName": "بيشة", "EnglishName": "BISHAH", "Longitude": 42.653820, "Latitude": 18.372240, "Emirates_ID": "عسير" }, "geometry": { "type": "Point", "coordinates": [ 42.653820040000141, 18.372240016000205 ] } },
{ "type": "Feature", "properties": { "ArabicName": "المضة", "EnglishName": "AL MADDAH", "Longitude": 42.660420, "Latitude": 18.574300, "Emirates_ID": "عسير" }, "geometry": { "type": "Point", "coordinates": [ 42.660420009000234, 18.574300044000211 ] } },
{ "type": "Feature", "properties": { "ArabicName": "خميس مشيط", "EnglishName": "KHAMIS MUSHAYT", "Longitude": 42.729770, "Latitude": 18.306130, "Emirates_ID": "عسير" }, "geometry": { "type": "Point", "coordinates": [ 42.729769982000221, 18.306130024000197 ] } },
{ "type": "Feature", "properties": { "ArabicName": "وادي ابن هشبل", "EnglishName": "WADI IBN HASHBAL", "Longitude": 42.684080, "Latitude": 18.618800, "Emirates_ID": "عسير" }, "geometry": { "type": "Point", "coordinates": [ 42.68407999700014, 18.618800028000123 ] } },
{ "type": "Feature", "properties": { "ArabicName": "خيبر الجنوب", "EnglishName": "KHAYBAR AL JANUB", "Longitude": 42.877610, "Latitude": 18.795910, "Emirates_ID": "عسير" }, "geometry": { "type": "Point", "coordinates": [ 42.87761000200021, 18.795910049000156 ] } },
{ "type": "Feature", "properties": { "ArabicName": "يعرى", "EnglishName": "YAARA", "Longitude": 42.980220, "Latitude": 18.702481, "Emirates_ID": "عسير" }, "geometry": { "type": "Point", "coordinates": [ 42.980220065000196, 18.702480805000107 ] } },
{ "type": "Feature", "properties": { "ArabicName": "رجال المع", "EnglishName": "RIJAL AL MA'", "Longitude": 42.284460, "Latitude": 18.195380, "Emirates_ID": "عسير" }, "geometry": { "type": "Point", "coordinates": [ 42.284459956000092, 18.195379943000148 ] } },
{ "type": "Feature", "properties": { "ArabicName": "الحريضة", "EnglishName": "AL HURAYDAH", "Longitude": 41.941630, "Latitude": 17.788880, "Emirates_ID": "عسير" }, "geometry": { "type": "Point", "coordinates": [ 41.941629940000155, 17.788879970000153 ] } },
{ "type": "Feature", "properties": { "ArabicName": "سراة عبيدة", "EnglishName": "SARAT ABIDAH", "Longitude": 43.144600, "Latitude": 18.084230, "Emirates_ID": "عسير" }, "geometry": { "type": "Point", "coordinates": [ 43.144600039000181, 18.08422994200015 ] } },
{ "type": "Feature", "properties": { "ArabicName": "الصبيخة", "EnglishName": "AS SUBAYKHAH", "Longitude": 43.315770, "Latitude": 19.101660, "Emirates_ID": "عسير" }, "geometry": { "type": "Point", "coordinates": [ 43.315769998000235, 19.101660046000291 ] } },
{ "type": "Feature", "properties": { "ArabicName": "المضة", "EnglishName": "AL MADDAH", "Longitude": 43.252650, "Latitude": 18.832270, "Emirates_ID": "عسير" }, "geometry": { "type": "Point", "coordinates": [ 43.252649954000162, 18.832270009000126 ] } },
{ "type": "Feature", "properties": { "ArabicName": "ظهران الجنوب", "EnglishName": "DHAHRAN AL JANUB", "Longitude": 43.509870, "Latitude": 17.669760, "Emirates_ID": "عسير" }, "geometry": { "type": "Point", "coordinates": [ 43.509870061000186, 17.669759992000252 ] } },
{ "type": "Feature", "properties": { "ArabicName": "الحرجه", "EnglishName": "AL HARAJAH", "Longitude": 43.370560, "Latitude": 17.928260, "Emirates_ID": "عسير" }, "geometry": { "type": "Point", "coordinates": [ 43.370559991000221, 17.928259996999941 ] } },
{ "type": "Feature", "properties": { "ArabicName": "الريش", "EnglishName": "AR RAYSH", "Longitude": 42.098260, "Latitude": 18.625570, "Emirates_ID": "عسير" }, "geometry": { "type": "Point", "coordinates": [ 42.098259969000082, 18.625569951000273 ] } },
{ "type": "Feature", "properties": { "ArabicName": "محايل", "EnglishName": "MUHAYIL", "Longitude": 42.043210, "Latitude": 18.544340, "Emirates_ID": "عسير" }, "geometry": { "type": "Point", "coordinates": [ 42.043209999000169, 18.544340040000236 ] } },
{ "type": "Feature", "properties": { "ArabicName": "قنا البحر", "EnglishName": "QANA & AL BAHR", "Longitude": 41.991840, "Latitude": 18.341390, "Emirates_ID": "عسير" }, "geometry": { "type": "Point", "coordinates": [ 41.991839972000207, 18.341389970000137 ] } },
{ "type": "Feature", "properties": { "ArabicName": "بحر ابو سكينة", "EnglishName": "BAHR ABU SUKAYNAH", "Longitude": 41.917493, "Latitude": 18.341438, "Emirates_ID": "عسير" }, "geometry": { "type": "Point", "coordinates": [ 41.917493180000235, 18.341437826000174 ] } },
{ "type": "Feature", "properties": { "ArabicName": "طريب", "EnglishName": "TARIB", "Longitude": 43.206904, "Latitude": 18.566761, "Emirates_ID": "عسير" }, "geometry": { "type": "Point", "coordinates": [ 43.206904012000166, 18.566760696000074 ] } },
{ "type": "Feature", "properties": { "ArabicName": "ام ربيعة", "EnglishName": "UMM RUBAY'AH", "Longitude": 48.853250, "Latitude": 26.034930, "Emirates_ID": "المنطقة الشرقية" }, "geometry": { "type": "Point", "coordinates": [ 48.853249906000144, 26.034929945000215 ] } },
{ "type": "Feature", "properties": { "ArabicName": "الهفوف", "EnglishName": "AL HUFUF", "Longitude": 49.604360, "Latitude": 25.366550, "Emirates_ID": "المنطقة الشرقية" }, "geometry": { "type": "Point", "coordinates": [ 49.604359857000247, 25.366550030000212 ] } },
{ "type": "Feature", "properties": { "ArabicName": "حرض", "EnglishName": "HARAD", "Longitude": 49.062450, "Latitude": 24.143380, "Emirates_ID": "المنطقة الشرقية" }, "geometry": { "type": "Point", "coordinates": [ 49.062449928000262, 24.143379954000295 ] } },
{ "type": "Feature", "properties": { "ArabicName": "العيون", "EnglishName": "AL UYUN", "Longitude": 49.556230, "Latitude": 25.617320, "Emirates_ID": "المنطقة الشرقية" }, "geometry": { "type": "Point", "coordinates": [ 49.556229862000293, 25.617319999000188 ] } },
{ "type": "Feature", "properties": { "ArabicName": "المبرز", "EnglishName": "AL MUBARRAZ", "Longitude": 49.586540, "Latitude": 25.406110, "Emirates_ID": "المنطقة الشرقية" }, "geometry": { "type": "Point", "coordinates": [ 49.58653981800029, 25.406109964000109 ] } },
{ "type": "Feature", "properties": { "ArabicName": "الجفر", "EnglishName": "AL JAFR", "Longitude": 49.723794, "Latitude": 25.376841, "Emirates_ID": "المنطقة الشرقية" }, "geometry": { "type": "Point", "coordinates": [ 49.723793868000143, 25.376841000000297 ] } },
{ "type": "Feature", "properties": { "ArabicName": "الاحساء", "EnglishName": "AL AHSA", "Longitude": 49.616281, "Latitude": 25.395745, "Emirates_ID": "المنطقة الشرقية" }, "geometry": { "type": "Point", "coordinates": [ 49.616280801000187, 25.395744611000168 ] } },
{ "type": "Feature", "properties": { "ArabicName": "جواثا", "EnglishName": "JAWATHA", "Longitude": 49.657278, "Latitude": 25.444381, "Emirates_ID": "المنطقة الشرقية" }, "geometry": { "type": "Point", "coordinates": [ 49.657278109694573, 25.444380913637929 ] } },
{ "type": "Feature", "properties": { "ArabicName": "الجبيل", "EnglishName": "AL JUBAIL", "Longitude": 49.670470, "Latitude": 26.999210, "Emirates_ID": "المنطقة الشرقية" }, "geometry": { "type": "Point", "coordinates": [ 49.670469849000085, 26.999210036000306 ] } },
{ "type": "Feature", "properties": { "ArabicName": "الخبر", "EnglishName": "AL KHOBAR", "Longitude": 50.210750, "Latitude": 26.310910, "Emirates_ID": "المنطقة الشرقية" }, "geometry": { "type": "Point", "coordinates": [ 50.210749746000261, 26.310909972000104 ] } },
{ "type": "Feature", "properties": { "ArabicName": "الخفجي", "EnglishName": "AL KHAFJI", "Longitude": 48.490340, "Latitude": 28.439810, "Emirates_ID": "المنطقة الشرقية" }, "geometry": { "type": "Point", "coordinates": [ 48.490339988000187, 28.439809972000205 ] } },
{ "type": "Feature", "properties": { "ArabicName": "الظهران", "EnglishName": "DHAHRAN", "Longitude": 50.122620, "Latitude": 26.303580, "Emirates_ID": "المنطقة الشرقية" }, "geometry": { "type": "Point", "coordinates": [ 50.122619740000289, 26.303579962000242 ] } },
{ "type": "Feature", "properties": { "ArabicName": "الدمام", "EnglishName": "DAMMAM", "Longitude": 50.109200, "Latitude": 26.441990, "Emirates_ID": "المنطقة الشرقية" }, "geometry": { "type": "Point", "coordinates": [ 50.109199808000142, 26.441990020000162 ] } },
{ "type": "Feature", "properties": { "ArabicName": "القطيف", "EnglishName": "AL QATIF", "Longitude": 50.001210, "Latitude": 26.563870, "Emirates_ID": "المنطقة الشرقية" }, "geometry": { "type": "Point", "coordinates": [ 50.001209869000149, 26.563870024000209 ] } },
{ "type": "Feature", "properties": { "ArabicName": "صفوى", "EnglishName": "SAFWA", "Longitude": 49.961610, "Latitude": 26.663400, "Emirates_ID": "المنطقة الشرقية" }, "geometry": { "type": "Point", "coordinates": [ 49.961609800000247, 26.663399948000119 ] } },
{ "type": "Feature", "properties": { "ArabicName": "سيهات", "EnglishName": "SAYHAT", "Longitude": 50.046800, "Latitude": 26.483410, "Emirates_ID": "المنطقة الشرقية" }, "geometry": { "type": "Point", "coordinates": [ 50.046799753000187, 26.483410009000238 ] } },
{ "type": "Feature", "properties": { "ArabicName": "عنك", "EnglishName": "'INAK", "Longitude": 50.026810, "Latitude": 26.528140, "Emirates_ID": "المنطقة الشرقية" }, "geometry": { "type": "Point", "coordinates": [ 50.026809770000284, 26.528139997000153 ] } },
{ "type": "Feature", "properties": { "ArabicName": "دارين", "EnglishName": "DARIN", "Longitude": 50.082760, "Latitude": 26.553890, "Emirates_ID": "المنطقة الشرقية" }, "geometry": { "type": "Point", "coordinates": [ 50.08275980600024, 26.553890007000177 ] } },
{ "type": "Feature", "properties": { "ArabicName": "بقيق", "EnglishName": "BUQAYQ", "Longitude": 49.684120, "Latitude": 25.944660, "Emirates_ID": "المنطقة الشرقية" }, "geometry": { "type": "Point", "coordinates": [ 49.684119853000084, 25.944659953000098 ] } },
{ "type": "Feature", "properties": { "ArabicName": "حفر الباطن", "EnglishName": "HAFAR AL BATIN", "Longitude": 45.980470, "Latitude": 28.437500, "Emirates_ID": "المنطقة الشرقية" }, "geometry": { "type": "Point", "coordinates": [ 45.980469967000204, 28.437500007000153 ] } },
{ "type": "Feature", "properties": { "ArabicName": "القيصومة", "EnglishName": "AL QAYSUMAH", "Longitude": 46.129430, "Latitude": 28.321980, "Emirates_ID": "المنطقة الشرقية" }, "geometry": { "type": "Point", "coordinates": [ 46.129429978000189, 28.321980014000303 ] } },
{ "type": "Feature", "properties": { "ArabicName": "السعيرة", "EnglishName": "AS SU'AYYIRAH", "Longitude": 47.519890, "Latitude": 27.826410, "Emirates_ID": "المنطقة الشرقية" }, "geometry": { "type": "Point", "coordinates": [ 47.519890033000308, 27.826410041000202 ] } },
{ "type": "Feature", "properties": { "ArabicName": "راس تنورة", "EnglishName": "RAS TANNURAH", "Longitude": 50.072460, "Latitude": 26.706740, "Emirates_ID": "المنطقة الشرقية" }, "geometry": { "type": "Point", "coordinates": [ 50.072459843000217, 26.706739977000268 ] } },
{ "type": "Feature", "properties": { "ArabicName": "الرفيعة", "EnglishName": "AR RAFI'AH", "Longitude": 47.059910, "Latitude": 27.020270, "Emirates_ID": "المنطقة الشرقية" }, "geometry": { "type": "Point", "coordinates": [ 47.059910030000083, 27.020270029000301 ] } },
{ "type": "Feature", "properties": { "ArabicName": "النعيرية", "EnglishName": "AN NU'AYRIYAH", "Longitude": 48.477430, "Latitude": 27.475700, "Emirates_ID": "المنطقة الشرقية" }, "geometry": { "type": "Point", "coordinates": [ 48.477429964000123, 27.475699970000278 ] } },
{ "type": "Feature", "properties": { "ArabicName": "مليجة", "EnglishName": "MULAYJAH", "Longitude": 48.426460, "Latitude": 27.274140, "Emirates_ID": "المنطقة الشرقية" }, "geometry": { "type": "Point", "coordinates": [ 48.426459923000209, 27.274140024000246 ] } },
{ "type": "Feature", "properties": { "ArabicName": "الصرار", "EnglishName": "AS SARRAR", "Longitude": 48.393450, "Latitude": 26.994200, "Emirates_ID": "المنطقة الشرقية" }, "geometry": { "type": "Point", "coordinates": [ 48.393449915000247, 26.994199950000223 ] } },
{ "type": "Feature", "properties": { "ArabicName": "الحائط", "EnglishName": "AL HAIT", "Longitude": 40.473890, "Latitude": 25.988160, "Emirates_ID": "حائل" }, "geometry": { "type": "Point", "coordinates": [ 40.473890056000187, 25.988160013000254 ] } },
{ "type": "Feature", "properties": { "ArabicName": "السليمي", "EnglishName": "AS SULAYMI", "Longitude": 41.363810, "Latitude": 26.294890, "Emirates_ID": "حائل" }, "geometry": { "type": "Point", "coordinates": [ 41.363809968000169, 26.294889969000224 ] } },
{ "type": "Feature", "properties": { "ArabicName": "الشملي", "EnglishName": "ASH SHAMLI", "Longitude": 40.318850, "Latitude": 26.843310, "Emirates_ID": "حائل" }, "geometry": { "type": "Point", "coordinates": [ 40.318849984000224, 26.84331000300017 ] } },
{ "type": "Feature", "properties": { "ArabicName": "موقق", "EnglishName": "MAWQAQ", "Longitude": 41.174710, "Latitude": 27.387260, "Emirates_ID": "حائل" }, "geometry": { "type": "Point", "coordinates": [ 41.174710004000303, 27.387260048000257 ] } },
{ "type": "Feature", "properties": { "ArabicName": "الشنان", "EnglishName": "ASH SHINAN", "Longitude": 42.441560, "Latitude": 27.180670, "Emirates_ID": "حائل" }, "geometry": { "type": "Point", "coordinates": [ 42.44156005900021, 27.180670011000188 ] } },
{ "type": "Feature", "properties": { "ArabicName": "الغزالة", "EnglishName": "AL GHAZALAH", "Longitude": 41.317320, "Latitude": 26.794440, "Emirates_ID": "حائل" }, "geometry": { "type": "Point", "coordinates": [ 41.317319978000285, 26.794440028000281 ] } },
{ "type": "Feature", "properties": { "ArabicName": "بقعاء", "EnglishName": "BAQ'A", "Longitude": 42.409180, "Latitude": 27.910240, "Emirates_ID": "حائل" }, "geometry": { "type": "Point", "coordinates": [ 42.409180052000295, 27.910239958000091 ] } },
{ "type": "Feature", "properties": { "ArabicName": "الاجفر", "EnglishName": "AL AJFAR", "Longitude": 42.996260, "Latitude": 27.478590, "Emirates_ID": "حائل" }, "geometry": { "type": "Point", "coordinates": [ 42.996259944000144, 27.47859000800014 ] } },
{ "type": "Feature", "properties": { "ArabicName": "الروضة", "EnglishName": "AR RAWDAH", "Longitude": 41.674980, "Latitude": 26.792360, "Emirates_ID": "حائل" }, "geometry": { "type": "Point", "coordinates": [ 41.674980005000236, 26.792360016000146 ] } },
{ "type": "Feature", "properties": { "ArabicName": "حائل", "EnglishName": "HAIL", "Longitude": 41.697330, "Latitude": 27.530550, "Emirates_ID": "حائل" }, "geometry": { "type": "Point", "coordinates": [ 41.69733001800023, 27.530549990000168 ] } },
{ "type": "Feature", "properties": { "ArabicName": "جبه", "EnglishName": "JUBBAH", "Longitude": 40.960250, "Latitude": 28.020730, "Emirates_ID": "حائل" }, "geometry": { "type": "Point", "coordinates": [ 40.960250010000152, 28.020729982000262 ] } },
{ "type": "Feature", "properties": { "ArabicName": "العظيم", "EnglishName": "AL 'UDHAIM", "Longitude": 42.472070, "Latitude": 26.601670, "Emirates_ID": "حائل" }, "geometry": { "type": "Point", "coordinates": [ 42.472070031000271, 26.601669973000241 ] } },
{ "type": "Feature", "properties": { "ArabicName": "سميراء", "EnglishName": "SIMIRA'", "Longitude": 42.129390, "Latitude": 26.499410, "Emirates_ID": "حائل" }, "geometry": { "type": "Point", "coordinates": [ 42.129390006000165, 26.49941000300015 ] } },
{ "type": "Feature", "properties": { "ArabicName": "ابو عريش", "EnglishName": "ABU ARISH", "Longitude": 42.831140, "Latitude": 16.965100, "Emirates_ID": "جازان" }, "geometry": { "type": "Point", "coordinates": [ 42.831139976000202, 16.96509998800019 ] } },
{ "type": "Feature", "properties": { "ArabicName": "المضاية", "EnglishName": "AL MADAYAH", "Longitude": 42.733880, "Latitude": 16.770000, "Emirates_ID": "جازان" }, "geometry": { "type": "Point", "coordinates": [ 42.733879956000294, 16.770000037000273 ] } },
{ "type": "Feature", "properties": { "ArabicName": "احد المسارحة", "EnglishName": "AHAD AL MUSARIHAH", "Longitude": 42.951460, "Latitude": 16.708100, "Emirates_ID": "جازان" }, "geometry": { "type": "Point", "coordinates": [ 42.95145998400028, 16.708099962000119 ] } },
{ "type": "Feature", "properties": { "ArabicName": "اليمانية", "EnglishName": "AL YAMANIYAH", "Longitude": 43.036610, "Latitude": 17.445490, "Emirates_ID": "جازان" }, "geometry": { "type": "Point", "coordinates": [ 43.036610041000131, 17.44548995699995 ] } },
{ "type": "Feature", "properties": { "ArabicName": "الدرب", "EnglishName": "AD DARB", "Longitude": 42.282690, "Latitude": 17.741430, "Emirates_ID": "جازان" }, "geometry": { "type": "Point", "coordinates": [ 42.2826899450003, 17.74142997000024 ] } },
{ "type": "Feature", "properties": { "ArabicName": "الشقيق", "EnglishName": "AL SHUQAYQ", "Longitude": 42.024180, "Latitude": 17.724390, "Emirates_ID": "جازان" }, "geometry": { "type": "Point", "coordinates": [ 42.024179985000217, 17.724389953000127 ] } },
{ "type": "Feature", "properties": { "ArabicName": "الريث", "EnglishName": "AR RAYTH", "Longitude": 42.858330, "Latitude": 17.602220, "Emirates_ID": "جازان" }, "geometry": { "type": "Point", "coordinates": [ 42.858330006000131, 17.602219941000271 ] } },
{ "type": "Feature", "properties": { "ArabicName": "الطوال", "EnglishName": "AT TUWAL", "Longitude": 42.968130, "Latitude": 16.528910, "Emirates_ID": "جازان" }, "geometry": { "type": "Point", "coordinates": [ 42.968130018000181, 16.528909975000147 ] } },
{ "type": "Feature", "properties": { "ArabicName": "الموسم", "EnglishName": "AL MUWASSAM", "Longitude": 42.822690, "Latitude": 16.420730, "Emirates_ID": "جازان" }, "geometry": { "type": "Point", "coordinates": [ 42.822690057000102, 16.420730043000162 ] } },
{ "type": "Feature", "properties": { "ArabicName": "العارضة", "EnglishName": "AL 'ARIDAH", "Longitude": 43.088000, "Latitude": 17.038970, "Emirates_ID": "جازان" }, "geometry": { "type": "Point", "coordinates": [ 43.088000046000161, 17.038969998000084 ] } },
{ "type": "Feature", "properties": { "ArabicName": "العيدابي", "EnglishName": "AL 'AYDABI", "Longitude": 42.944620, "Latitude": 17.235470, "Emirates_ID": "جازان" }, "geometry": { "type": "Point", "coordinates": [ 42.944619981000187, 17.235470057000214 ] } },
{ "type": "Feature", "properties": { "ArabicName": "بيش", "EnglishName": "BAYSH", "Longitude": 42.546430, "Latitude": 17.378890, "Emirates_ID": "جازان" }, "geometry": { "type": "Point", "coordinates": [ 42.546430053000222, 17.378889973000241 ] } },
{ "type": "Feature", "properties": { "ArabicName": "جازان", "EnglishName": "JAZAN", "Longitude": 42.553600, "Latitude": 16.896720, "Emirates_ID": "جازان" }, "geometry": { "type": "Point", "coordinates": [ 42.553600009000206, 16.896719948000225 ] } },
{ "type": "Feature", "properties": { "ArabicName": "الكربوص", "EnglishName": "AL KARBUS", "Longitude": 42.634850, "Latitude": 16.873250, "Emirates_ID": "جازان" }, "geometry": { "type": "Point", "coordinates": [ 42.634850000000142, 16.87325004700017 ] } },
{ "type": "Feature", "properties": { "ArabicName": "صامطة", "EnglishName": "SAMTAH", "Longitude": 42.940830, "Latitude": 16.605190, "Emirates_ID": "جازان" }, "geometry": { "type": "Point", "coordinates": [ 42.940830008000205, 16.6051900060001 ] } },
{ "type": "Feature", "properties": { "ArabicName": "صبيا", "EnglishName": "SABYA", "Longitude": 42.632510, "Latitude": 17.147800, "Emirates_ID": "جازان" }, "geometry": { "type": "Point", "coordinates": [ 42.632509994000145, 17.147800010000026 ] } },
{ "type": "Feature", "properties": { "ArabicName": "ضمد", "EnglishName": "DAMAD", "Longitude": 42.780430, "Latitude": 17.103440, "Emirates_ID": "جازان" }, "geometry": { "type": "Point", "coordinates": [ 42.780430013000284, 17.103440050000188 ] } },
{ "type": "Feature", "properties": { "ArabicName": "فرسان", "EnglishName": "FARASAN", "Longitude": 42.126930, "Latitude": 16.709090, "Emirates_ID": "جازان" }, "geometry": { "type": "Point", "coordinates": [ 42.126929950000203, 16.709089985000048 ] } },
{ "type": "Feature", "properties": { "ArabicName": "هروب", "EnglishName": "HARUB", "Longitude": 42.898130, "Latitude": 17.437430, "Emirates_ID": "جازان" }, "geometry": { "type": "Point", "coordinates": [ 42.89812995300025, 17.437429961000248 ] } },
{ "type": "Feature", "properties": { "ArabicName": "الجموم", "EnglishName": "AL JUMUM", "Longitude": 39.696900, "Latitude": 21.614770, "Emirates_ID": "مكة المكرمة" }, "geometry": { "type": "Point", "coordinates": [ 39.69689997200021, 21.614769962000196 ] } },
{ "type": "Feature", "properties": { "ArabicName": "عسفان", "EnglishName": "'ISFAN", "Longitude": 39.351540, "Latitude": 21.910200, "Emirates_ID": "مكة المكرمة" }, "geometry": { "type": "Point", "coordinates": [ 39.351539957000284, 21.910199951000209 ] } },
{ "type": "Feature", "properties": { "ArabicName": "مدركة", "EnglishName": "MADRAKAH", "Longitude": 39.996990, "Latitude": 21.983960, "Emirates_ID": "مكة المكرمة" }, "geometry": { "type": "Point", "coordinates": [ 39.996990014000176, 21.983960056000171 ] } },
{ "type": "Feature", "properties": { "ArabicName": "الخرمة", "EnglishName": "AL KHURMAH", "Longitude": 42.033980, "Latitude": 21.913720, "Emirates_ID": "مكة المكرمة" }, "geometry": { "type": "Point", "coordinates": [ 42.033979984000212, 21.913720030000206 ] } },
{ "type": "Feature", "properties": { "ArabicName": "الغريف", "EnglishName": "AL GHARIF", "Longitude": 41.881390, "Latitude": 21.613020, "Emirates_ID": "مكة المكرمة" }, "geometry": { "type": "Point", "coordinates": [ 41.881390019000264, 21.613020056000209 ] } },
{ "type": "Feature", "properties": { "ArabicName": "الطائف", "EnglishName": "AT TAIF", "Longitude": 40.416670, "Latitude": 21.268480, "Emirates_ID": "مكة المكرمة" }, "geometry": { "type": "Point", "coordinates": [ 40.416670025000201, 21.268480049000232 ] } },
{ "type": "Feature", "properties": { "ArabicName": "السيل الصغير", "EnglishName": "AS SAYL AS SAGHIR", "Longitude": 40.483510, "Latitude": 21.507660, "Emirates_ID": "مكة المكرمة" }, "geometry": { "type": "Point", "coordinates": [ 40.483509978000143, 21.507660029000249 ] } },
{ "type": "Feature", "properties": { "ArabicName": "السيل الكبير", "EnglishName": "AS SAYL AL KABIR", "Longitude": 40.416630, "Latitude": 21.623990, "Emirates_ID": "مكة المكرمة" }, "geometry": { "type": "Point", "coordinates": [ 40.416630056000145, 21.623990057000242 ] } },
{ "type": "Feature", "properties": { "ArabicName": "القنفذة", "EnglishName": "AL QUNFIDHAH", "Longitude": 41.090610, "Latitude": 19.127230, "Emirates_ID": "مكة المكرمة" }, "geometry": { "type": "Point", "coordinates": [ 41.090609963000247, 19.127229962000115 ] } },
{ "type": "Feature", "properties": { "ArabicName": "القوز", "EnglishName": "AL QAWZ", "Longitude": 41.312550, "Latitude": 18.972170, "Emirates_ID": "مكة المكرمة" }, "geometry": { "type": "Point", "coordinates": [ 41.3125499840001, 18.97216994300021 ] } },
{ "type": "Feature", "properties": { "ArabicName": "الكامل", "EnglishName": "AL KAMIL", "Longitude": 39.790180, "Latitude": 22.264590, "Emirates_ID": "مكة المكرمة" }, "geometry": { "type": "Point", "coordinates": [ 39.790180018000115, 22.264590003000251 ] } },
{ "type": "Feature", "properties": { "ArabicName": "الليث", "EnglishName": "AL LITH", "Longitude": 40.272230, "Latitude": 20.152670, "Emirates_ID": "مكة المكرمة" }, "geometry": { "type": "Point", "coordinates": [ 40.272230034000245, 20.152670028000216 ] } },
{ "type": "Feature", "properties": { "ArabicName": "غميقة", "EnglishName": "GHUMAYQAH", "Longitude": 40.447290, "Latitude": 20.316440, "Emirates_ID": "مكة المكرمة" }, "geometry": { "type": "Point", "coordinates": [ 40.447289977000253, 20.31644002600018 ] } },
{ "type": "Feature", "properties": { "ArabicName": "الشاقة \/ الصهوة", "EnglishName": "AL SHAQQAH (AS SHWAH)", "Longitude": 40.741410, "Latitude": 19.917700, "Emirates_ID": "مكة المكرمة" }, "geometry": { "type": "Point", "coordinates": [ 40.741410030000225, 19.917699961000153 ] } },
{ "type": "Feature", "properties": { "ArabicName": "المويه القديم", "EnglishName": "AL MUWAYH AL QADIM", "Longitude": 41.593280, "Latitude": 22.748160, "Emirates_ID": "مكة المكرمة" }, "geometry": { "type": "Point", "coordinates": [ 41.593279949000248, 22.748159974000259 ] } },
{ "type": "Feature", "properties": { "ArabicName": "تربه", "EnglishName": "TURBAH", "Longitude": 41.635210, "Latitude": 21.206780, "Emirates_ID": "مكة المكرمة" }, "geometry": { "type": "Point", "coordinates": [ 41.6352100430002, 21.206779969000252 ] } },
{ "type": "Feature", "properties": { "ArabicName": "جدة", "EnglishName": "JEDDAH", "Longitude": 39.180950, "Latitude": 21.488180, "Emirates_ID": "مكة المكرمة" }, "geometry": { "type": "Point", "coordinates": [ 39.180949951000173, 21.488179961000128 ] } },
{ "type": "Feature", "properties": { "ArabicName": "خليص", "EnglishName": "KHULAYS", "Longitude": 39.337633, "Latitude": 22.155000, "Emirates_ID": "مكة المكرمة" }, "geometry": { "type": "Point", "coordinates": [ 39.337633333333429, 22.155 ] } },
{ "type": "Feature", "properties": { "ArabicName": "رابغ", "EnglishName": "RABIGH", "Longitude": 39.034460, "Latitude": 22.793740, "Emirates_ID": "مكة المكرمة" }, "geometry": { "type": "Point", "coordinates": [ 39.034459943000115, 22.793740010000192 ] } },
{ "type": "Feature", "properties": { "ArabicName": "مدينة الملك عبدالله الاقتصادية", "EnglishName": "KING ABDULLAH ECONOMIC CITY", "Longitude": 39.131192, "Latitude": 22.460838, "Emirates_ID": "مكة المكرمة" }, "geometry": { "type": "Point", "coordinates": [ 39.131192357000259, 22.460838388000127 ] } },
{ "type": "Feature", "properties": { "ArabicName": "رنية", "EnglishName": "RANYAH", "Longitude": 42.842150, "Latitude": 21.249300, "Emirates_ID": "مكة المكرمة" }, "geometry": { "type": "Point", "coordinates": [ 42.842150021000123, 21.249299979000284 ] } },
{ "type": "Feature", "properties": { "ArabicName": "مكة المكرمة", "EnglishName": "MAKKAH AL MUKARRAMAH", "Longitude": 39.843490, "Latitude": 21.427180, "Emirates_ID": "مكة المكرمة" }, "geometry": { "type": "Point", "coordinates": [ 39.843490010000153, 21.427179944000216 ] } },
{ "type": "Feature", "properties": { "ArabicName": "ميسان", "EnglishName": "MAYSAN", "Longitude": 40.850320, "Latitude": 20.747560, "Emirates_ID": "مكة المكرمة" }, "geometry": { "type": "Point", "coordinates": [ 40.850319990000173, 20.747560017000296 ] } },
{ "type": "Feature", "properties": { "ArabicName": "الباحة", "EnglishName": "AL BAHA", "Longitude": 41.463140, "Latitude": 20.006950, "Emirates_ID": "منطقة الباحة" }, "geometry": { "type": "Point", "coordinates": [ 41.463140000000294, 20.006950058000143 ] } },
{ "type": "Feature", "properties": { "ArabicName": "الحجرة", "EnglishName": "AL HAJRAH", "Longitude": 41.074390, "Latitude": 20.228740, "Emirates_ID": "منطقة الباحة" }, "geometry": { "type": "Point", "coordinates": [ 41.074389974000155, 20.228740043000187 ] } },
{ "type": "Feature", "properties": { "ArabicName": "العقيق", "EnglishName": "AL AQIQ", "Longitude": 41.663060, "Latitude": 20.274390, "Emirates_ID": "منطقة الباحة" }, "geometry": { "type": "Point", "coordinates": [ 41.663059953000186, 20.274389942000141 ] } },
{ "type": "Feature", "properties": { "ArabicName": "القرى", "EnglishName": "AL QARA", "Longitude": 41.364150, "Latitude": 20.251450, "Emirates_ID": "منطقة الباحة" }, "geometry": { "type": "Point", "coordinates": [ 41.364150047000123, 20.251450057000227 ] } },
{ "type": "Feature", "properties": { "ArabicName": "بيدة", "EnglishName": "BAYDAH", "Longitude": 41.406670, "Latitude": 20.244710, "Emirates_ID": "منطقة الباحة" }, "geometry": { "type": "Point", "coordinates": [ 41.4066699520003, 20.244710014000248 ] } },
{ "type": "Feature", "properties": { "ArabicName": "المخواة", "EnglishName": "AL MUKHWAH", "Longitude": 41.438480, "Latitude": 19.786510, "Emirates_ID": "منطقة الباحة" }, "geometry": { "type": "Point", "coordinates": [ 41.438479969000127, 19.786510033000241 ] } },
{ "type": "Feature", "properties": { "ArabicName": "المندق", "EnglishName": "AL MANDAQ", "Longitude": 41.292210, "Latitude": 20.164460, "Emirates_ID": "منطقة الباحة" }, "geometry": { "type": "Point", "coordinates": [ 41.292210050000108, 20.164459971000213 ] } },
{ "type": "Feature", "properties": { "ArabicName": "دوس", "EnglishName": "DAWS", "Longitude": 41.231390, "Latitude": 20.205720, "Emirates_ID": "منطقة الباحة" }, "geometry": { "type": "Point", "coordinates": [ 41.231390004000275, 20.205720047000113 ] } },
{ "type": "Feature", "properties": { "ArabicName": "بلجرشي", "EnglishName": "BILJURASHI", "Longitude": 41.562520, "Latitude": 19.841120, "Emirates_ID": "منطقة الباحة" }, "geometry": { "type": "Point", "coordinates": [ 41.562520033000169, 19.841120053000168 ] } },
{ "type": "Feature", "properties": { "ArabicName": "قلوة", "EnglishName": "QILWAH", "Longitude": 41.239360, "Latitude": 19.948030, "Emirates_ID": "منطقة الباحة" }, "geometry": { "type": "Point", "coordinates": [ 41.239360039000246, 19.948029941000186 ] } }
]
}
